
$GPRMC,173535.000,A,3853.3253,N,07701.6814,W,2.36,285.03,270915,,,A*79
$GPGGA,173540.000,3853.3247,N,07701.6864,W,1,07,1.15,3.4,M,-33.5,M,,*55
$GPRMC,173540.000,A,3853.3247,N,07701.6864,W,2.53,275.91,270915,,,A*7E
$GPGGA,173545.000,3853.3247,N,07701.6912,W,1,07,1.15,4.7,M,-33.5,M,,*54
$GPRMC,173545.000,A,3853.3247,N,07701.6912,W,2.59,285.04,270915,,,A*72
$GPGGA,173550.000,3853.3255,N,07701.6955,W,1,08,0.95,5.4,M,-33.5,M,,*54
$GPRMC,173550.000,A,3853.3255,N,07701.6955,W,2.64,300.90,270915,,,A*79
$GPGGA,173555.000,3853.3262,N,07701.6996,W,1,08,0.95,6.3,M,-33.5,M,,*5E
$GPRMC,173555.000,A,3853.3262,N,07701.6996,W,2.33,288.05,270915,,,A*78
$GPGGA,173600.000,3853.3260,N,07701.7021,W,1,07,1.05,6.9,M,-33.5,M,,*56
$GPRMC,173600.000,A,3853.3260,N,07701.7021,W,1.03,238.73,270915,,,A*77
$GPGGA,173605.000,3853.3249,N,07701.7028,W,1,07,1.05,7.6,M,-33.5,M,,*5F
$GPRMC,173605.000,A,3853.3249,N,07701.7028,W,0.62,164.48,270915,,,A*74
$GPGGA,173610.000,3853.3237,N,07701.7032,W,1,07,1.05,9.7,M,-33.5,M,,*56
$GPRMC,173610.000,A,3853.3237,N,07701.7032,W,0.32,173.90,270915,,,A*74
$GPGGA,173615.000,3853.3228,N,07701.7038,W,1,07,1.05,12.7,M,-33.5,M,,*6D
$GPRMC,173615.000,A,3853.3228,N,07701.7038,W,0.06,92.93,270915,,,A*4F
$GPGGA,173620.000,3853.3230,N,07701.7022,W,1,07,1.05,15.5,M,-33.5,M,,*6C
$GPRMC,173620.000,A,3853.3230,N,07701.7022,W,0.58,50.02,270915,,,A*46
$GPGGA,173625.000,3853.3240,N,07701.7012,W,1,07,1.05,14.0,M,-33.5,M,,*69
$GPRMC,173625.000,A,3853.3240,N,07701.7012,W,0.32,57.04,270915,,,A*4A
$GPGGA,173630.000,3853.3249,N,07701.6999,W,1,07,1.05,14.3,M,-33.5,M,,*6C
$GPRMC,173630.000,A,3853.3249,N,07701.6999,W,0.76,46.16,270915,,,A*4F
$GPGGA,173635.000,3853.3257,N,07701.6982,W,1,07,1.05,14.4,M,-33.5,M,,*6B
$GPRMC,173635.000,A,3853.3257,N,07701.6982,W,0.62,48.61,270915,,,A*44
$GPGGA,173640.000,3853.3265,N,07701.6972,W,1,07,1.05,14.6,M,-33.5,M,,*65
$GPRMC,173640.000,A,3853.3265,N,07701.6972,W,0.76,49.78,270915,,,A*44
$GPGGA,173645.000,3853.3276,N,07701.6962,W,1,07,1.05,14.9,M,-33.5,M,,*6C
$GPRMC,173645.000,A,3853.3276,N,07701.6962,W,0.59,48.34,270915,,,A*46
$GPGGA,173650.000,3853.3283,N,07701.6957,W,1,07,1.05,15.0,M,-33.5,M,,*6C
$GPRMC,173650.000,A,3853.3283,N,07701.6957,W,0.34,62.89,270915,,,A*4B
$GPGGA,173655.000,3853.3289,N,07701.6959,W,1,07,1.05,15.3,M,-33.5,M,,*6E
$GPRMC,173655.000,A,3853.3289,N,07701.6959,W,0.35,31.40,270915,,,A*48
$GPGGA,173700.000,3853.3286,N,07701.6964,W,1,08,0.93,15.4,M,-33.5,M,,*68
$GPRMC,173700.000,A,3853.3286,N,07701.6964,W,0.63,45.12,270915,,,A*4F
$GPGGA,173705.000,3853.3283,N,07701.6967,W,1,08,0.93,15.0,M,-33.5,M,,*6F
$GPRMC,173705.000,A,3853.3283,N,07701.6967,W,0.25,83.27,270915,,,A*42
$GPGGA,173710.000,3853.3279,N,07701.6970,W,1,08,0.93,14.4,M,-33.5,M,,*6D
$GPRMC,173710.000,A,3853.3279,N,07701.6970,W,0.10,0.60,270915,,,A*7B
$GPGGA,173715.000,3853.3277,N,07701.6971,W,1,08,0.94,14.3,M,-33.5,M,,*67
$GPRMC,173715.000,A,3853.3277,N,07701.6971,W,0.17,14.68,270915,,,A*4B
$GPGGA,173720.000,3853.3277,N,07701.6971,W,1,08,0.94,13.5,M,-33.5,M,,*60
$GPRMC,173720.000,A,3853.3277,N,07701.6971,W,0.16,17.77,270915,,,A*41
$GPGGA,173725.000,3853.3279,N,07701.6970,W,1,08,0.93,13.4,M,-33.5,M,,*6C
$GPRMC,173725.000,A,3853.3279,N,07701.6970,W,0.16,18.64,270915,,,A*46
$GPGGA,173730.000,3853.3281,N,07701.6969,W,1,08,0.93,13.3,M,-33.5,M,,*60
$GPRMC,173730.000,A,3853.3281,N,07701.6969,W,0.11,359.83,270915,,,A*75
$GPGGA,173735.000,3853.3282,N,07701.6969,W,1,08,0.94,13.2,M,-33.5,M,,*60
$GPRMC,173735.000,A,3853.3282,N,07701.6969,W,0.12,37.66,270915,,,A*40
$GPGGA,173740.000,3853.3284,N,07701.6968,W,1,08,0.93,12.8,M,-33.5,M,,*69
$GPRMC,173740.000,A,3853.3284,N,07701.6968,W,0.17,10.34,270915,,,A*42
$GPGGA,173745.000,3853.3286,N,07701.6968,W,1,08,0.94,12.5,M,-33.5,M,,*64
$GPRMC,173745.000,A,3853.3286,N,07701.6968,W,0.13,299.82,270915,,,A*7F
$GPGGA,173750.000,3853.3287,N,07701.6970,W,1,08,0.93,11.8,M,-33.5,M,,*61
$GPRMC,173750.000,A,3853.3287,N,07701.6970,W,0.08,303.53,270915,,,A*77
$GPGGA,173755.000,3853.3287,N,07701.6971,W,1,07,0.97,11.4,M,-33.5,M,,*62
$GPRMC,173755.000,A,3853.3287,N,07701.6971,W,0.23,93.10,270915,,,A*47
$GPGGA,173800.000,3853.3287,N,07701.6967,W,1,08,0.93,11.0,M,-33.5,M,,*65
$GPRMC,173800.000,A,3853.3287,N,07701.6967,W,0.30,111.03,270915,,,A*74
$GPGGA,173805.000,3853.3286,N,07701.6962,W,1,07,0.97,10.8,M,-33.5,M,,*66
$GPRMC,173805.000,A,3853.3286,N,07701.6962,W,0.19,124.95,270915,,,A*77
$GPGGA,173810.000,3853.3284,N,07701.6959,W,1,07,0.97,10.6,M,-33.5,M,,*66
$GPRMC,173810.000,A,3853.3284,N,07701.6959,W,0.01,25.26,270915,,,A*48
$GPGGA,173815.000,3853.3284,N,07701.6959,W,1,08,0.93,10.4,M,-33.5,M,,*6A
$GPRMC,173815.000,A,3853.3284,N,07701.6959,W,0.10,21.87,270915,,,A*42
$GPGGA,173820.000,3853.3285,N,07701.6959,W,1,07,0.97,10.3,M,-33.5,M,,*61
$GPRMC,173820.000,A,3853.3285,N,07701.6959,W,0.56,116.40,270915,,,A*79
$GPGGA,173825.000,3853.3282,N,07701.6950,W,1,07,0.97,10.3,M,-33.5,M,,*6A
$GPRMC,173825.000,A,3853.3282,N,07701.6950,W,0.48,62.01,270915,,,A*4A
$GPGGA,173830.000,3853.3285,N,07701.6942,W,1,08,0.93,10.2,M,-33.5,M,,*60
$GPRMC,173830.000,A,3853.3285,N,07701.6942,W,1.15,103.94,270915,,,A*79
$GPGGA,173835.000,3853.3280,N,07701.6944,W,1,08,0.93,9.9,M,-33.5,M,,*55
$GPRMC,173835.000,A,3853.3280,N,07701.6944,W,0.35,68.13,270915,,,A*4F
$GPGGA,173840.000,3853.3285,N,07701.6943,W,1,08,0.93,9.3,M,-33.5,M,,*5F
$GPRMC,173840.000,A,3853.3285,N,07701.6943,W,0.17,55.28,270915,,,A*49
$GPGGA,173845.000,3853.3295,N,07701.6946,W,1,08,0.93,9.0,M,-33.5,M,,*5D
$GPRMC,173845.000,A,3853.3295,N,07701.6946,W,0.48,18.94,270915,,,A*4C
$GPGGA,173850.000,3853.3306,N,07701.6937,W,1,08,0.93,8.8,M,-33.5,M,,*5D
$GPRMC,173850.000,A,3853.3306,N,07701.6937,W,0.41,18.76,270915,,,A*40
$GPGGA,173855.000,3853.3312,N,07701.6935,W,1,08,0.93,8.7,M,-33.5,M,,*50
$GPRMC,173855.000,A,3853.3312,N,07701.6935,W,0.48,28.95,270915,,,A*45
$GPGGA,173900.000,3853.3318,N,07701.6930,W,1,08,0.93,8.7,M,-33.5,M,,*5E
$GPRMC,173900.000,A,3853.3318,N,07701.6930,W,0.20,8.54,270915,,,A*7A
$GPGGA,173905.000,3853.3321,N,07701.6930,W,1,08,0.94,8.6,M,-33.5,M,,*57
$GPRMC,173905.000,A,3853.3321,N,07701.6930,W,0.20,359.22,270915,,,A*73
$GPGGA,173910.000,3853.3323,N,07701.6930,W,1,08,0.94,8.4,M,-33.5,M,,*53
$GPRMC,173910.000,A,3853.3323,N,07701.6930,W,0.09,286.95,270915,,,A*71
$GPGGA,173915.000,3853.3323,N,07701.6932,W,1,08,0.93,8.1,M,-33.5,M,,*56
$GPRMC,173915.000,A,3853.3323,N,07701.6932,W,0.12,246.25,270915,,,A*7B
$GPGGA,173920.000,3853.3322,N,07701.6934,W,1,07,0.97,7.9,M,-33.5,M,,*5B
$GPRMC,173920.000,A,3853.3322,N,07701.6934,W,0.10,1.22,270915,,,A*7E
$GPGGA,173925.000,3853.3324,N,07701.6935,W,1,07,0.98,7.7,M,-33.5,M,,*58
$GPRMC,173925.000,A,3853.3324,N,07701.6935,W,0.09,41.41,270915,,,A*45
$GPGGA,173930.000,3853.3324,N,07701.6934,W,1,07,0.97,7.5,M,-33.5,M,,*50
$GPRMC,173930.000,A,3853.3324,N,07701.6934,W,0.19,199.99,270915,,,A*70
$GPGGA,173935.000,3853.3321,N,07701.6935,W,1,07,0.97,7.2,M,-33.5,M,,*56
$GPRMC,173935.000,A,3853.3321,N,07701.6935,W,0.11,157.79,270915,,,A*75
$GPGGA,173940.000,3853.3319,N,07701.6935,W,1,07,0.97,6.9,M,-33.5,M,,*55
$GPRMC,173940.000,A,3853.3319,N,07701.6935,W,0.32,149.51,270915,,,A*78
$GPGGA,173945.000,3853.3315,N,07701.6932,W,1,07,0.97,6.7,M,-33.5,M,,*55
$GPRMC,173945.000,A,3853.3315,N,07701.6932,W,0.29,170.84,270915,,,A*7E
$GPGGA,173950.000,3853.3311,N,07701.6931,W,1,07,0.97,6.5,M,-33.5,M,,*54
$GPRMC,173950.000,A,3853.3311,N,07701.6931,W,0.27,178.85,270915,,,A*7A
$GPGGA,173955.000,3853.3307,N,07701.6932,W,1,07,0.97,6.4,M,-33.5,M,,*54
$GPRMC,173955.000,A,3853.3307,N,07701.6932,W,0.27,179.68,270915,,,A*79
$GPGGA,174000.000,3853.3303,N,07701.6932,W,1,07,0.97,6.2,M,-33.5,M,,*58
$GPRMC,174000.000,A,3853.3303,N,07701.6932,W,0.12,152.16,270915,,,A*75
$GPGGA,174005.000,3853.3301,N,07701.6931,W,1,07,0.97,6.0,M,-33.5,M,,*5E
$GPRMC,174005.000,A,3853.3301,N,07701.6931,W,0.05,210.04,270915,,,A*71
$GPGGA,174010.000,3853.3300,N,07701.6932,W,1,08,0.94,5.8,M,-33.5,M,,*5F
$GPRMC,174010.000,A,3853.3300,N,07701.6932,W,0.31,138.60,270915,,,A*7B
$GPGGA,174015.000,3853.3297,N,07701.6929,W,1,08,0.94,5.7,M,-33.5,M,,*50
$GPRMC,174015.000,A,3853.3297,N,07701.6929,W,0.09,10.60,270915,,,A*4B
$GPGGA,174020.000,3853.3298,N,07701.6928,W,1,08,0.95,5.6,M,-33.5,M,,*58
$GPRMC,174020.000,A,3853.3298,N,07701.6928,W,0.28,136.78,270915,,,A*7C
$GPGGA,174025.000,3853.3295,N,07701.6925,W,1,08,0.94,5.5,M,-33.5,M,,*5F
$GPRMC,174025.000,A,3853.3295,N,07701.6925,W,0.58,201.77,270915,,,A*76
$GPGGA,174030.000,3853.3287,N,07701.6929,W,1,07,0.97,5.4,M,-33.5,M,,*59
$GPRMC,174030.000,A,3853.3287,N,07701.6929,W,0.25,246.68,270915,,,A*7A
$GPGGA,174035.000,3853.3286,N,07701.6934,W,1,08,0.94,5.3,M,-33.5,M,,*5A
$GPRMC,174035.000,A,3853.3286,N,07701.6934,W,0.61,12.50,270915,,,A*4A
$GPGGA,174040.000,3853.3283,N,07701.6947,W,1,08,0.95,4.9,M,-33.5,M,,*53
$GPRMC,174040.000,A,3853.3283,N,07701.6947,W,1.04,12.48,270915,,,A*42
$GPGGA,174045.000,3853.3270,N,07701.6969,W,1,08,0.95,4.3,M,-33.5,M,,*5C
$GPRMC,174045.000,A,3853.3270,N,07701.6969,W,0.12,279.23,270915,,,A*73
$GPGGA,174050.000,3853.3264,N,07701.6980,W,1,08,0.94,4.1,M,-33.5,M,,*59
$GPRMC,174050.000,A,3853.3264,N,07701.6980,W,0.23,189.75,270915,,,A*78
$GPGGA,174055.000,3853.3256,N,07701.6988,W,1,08,0.94,4.0,M,-33.5,M,,*54
$GPRMC,174055.000,A,3853.3256,N,07701.6988,W,0.32,238.22,270915,,,A*7F
$GPGGA,174100.000,3853.3254,N,07701.6994,W,1,08,0.94,3.7,M,-33.5,M,,*5A
$GPRMC,174100.000,A,3853.3254,N,07701.6994,W,0.27,264.01,270915,,,A*7D
$GPGGA,174105.000,3853.3254,N,07701.6999,W,1,08,0.94,3.8,M,-33.5,M,,*5D
$GPRMC,174105.000,A,3853.3254,N,07701.6999,W,1.08,229.88,270915,,,A*71
$GPGGA,174110.000,3853.3247,N,07701.7007,W,1,08,0.94,2.6,M,-33.5,M,,*5B
$GPRMC,174110.000,A,3853.3247,N,07701.7007,W,0.10,194.44,270915,,,A*75
$GPGGA,174115.000,3853.3251,N,07701.7011,W,1,08,0.94,1.8,M,-33.5,M,,*53
$GPRMC,174115.000,A,3853.3251,N,07701.7011,W,0.23,8.13,270915,,,A*76
$GPGGA,174120.000,3853.3252,N,07701.7012,W,1,08,0.95,1.0,M,-33.5,M,,*5C
$GPRMC,174120.000,A,3853.3252,N,07701.7012,W,0.25,28.71,270915,,,A*40
$GPGGA,174125.000,3853.3248,N,07701.7010,W,1,08,0.94,0.7,M,-33.5,M,,*57
$GPRMC,174125.000,A,3853.3248,N,07701.7010,W,0.15,97.30,270915,,,A*4E
$GPGGA,174130.000,3853.3248,N,07701.7007,W,1,08,0.94,0.6,M,-33.5,M,,*54
$GPRMC,174130.000,A,3853.3248,N,07701.7007,W,0.13,11.47,270915,,,A*44
$GPGGA,174135.000,3853.3250,N,07701.7006,W,1,08,0.95,0.5,M,-33.5,M,,*5B
$GPRMC,174135.000,A,3853.3250,N,07701.7006,W,0.09,60.05,270915,,,A*42
$GPGGA,174140.000,3853.3250,N,07701.7005,W,1,08,0.94,0.5,M,-33.5,M,,*5B
$GPRMC,174140.000,A,3853.3250,N,07701.7005,W,0.22,65.73,270915,,,A*4E
$GPGGA,174145.000,3853.3252,N,07701.7001,W,1,08,0.94,0.5,M,-33.5,M,,*58
$GPRMC,174145.000,A,3853.3252,N,07701.7001,W,0.23,108.77,270915,,,A*72
$GPGGA,174150.000,3853.3250,N,07701.6997,W,1,08,0.94,0.6,M,-33.5,M,,*5A
$GPRMC,174150.000,A,3853.3250,N,07701.6997,W,0.15,83.38,270915,,,A*4F
$GPGGA,174155.000,3853.3251,N,07701.6995,W,1,08,0.94,0.6,M,-33.5,M,,*5C
$GPRMC,174155.000,A,3853.3251,N,07701.6995,W,0.18,352.01,270915,,,A*71
$GPGGA,174200.000,3853.3253,N,07701.6995,W,1,08,0.95,0.7,M,-33.5,M,,*5D
$GPRMC,174200.000,A,3853.3253,N,07701.6995,W,0.11,336.91,270915,,,A*72
$GPGGA,174205.000,3853.3254,N,07701.6996,W,1,08,0.94,0.7,M,-33.5,M,,*5D
$GPRMC,174205.000,A,3853.3254,N,07701.6996,W,0.08,37.06,270915,,,A*47
$GPGGA,174210.000,3853.3255,N,07701.6995,W,1,08,0.94,0.8,M,-33.5,M,,*54
$GPRMC,174210.000,A,3853.3255,N,07701.6995,W,0.09,1.62,270915,,,A*77
$GPGGA,174215.000,3853.3256,N,07701.6995,W,1,08,0.95,0.8,M,-33.5,M,,*53
$GPRMC,174215.000,A,3853.3256,N,07701.6995,W,0.09,89.96,270915,,,A*4A
$GPGGA,174220.000,3853.3256,N,07701.6994,W,1,08,0.94,0.8,M,-33.5,M,,*55
$GPRMC,174220.000,A,3853.3256,N,07701.6994,W,0.17,343.39,270915,,,A*72
$GPGGA,174225.000,3853.3259,N,07701.6995,W,1,08,0.94,0.7,M,-33.5,M,,*51
$GPRMC,174225.000,A,3853.3259,N,07701.6995,W,0.27,335.72,270915,,,A*74
$GPGGA,174230.000,3853.3262,N,07701.6997,W,1,08,0.94,0.7,M,-33.5,M,,*5F
$GPRMC,174230.000,A,3853.3262,N,07701.6997,W,0.12,31.30,270915,,,A*4D
$GPGGA,174235.000,3853.3264,N,07701.6996,W,1,08,0.94,0.5,M,-33.5,M,,*5F
$GPRMC,174235.000,A,3853.3264,N,07701.6996,W,0.19,20.60,270915,,,A*41
$GPGGA,174240.000,3853.3266,N,07701.6994,W,1,08,0.94,0.4,M,-33.5,M,,*5C
$GPRMC,174240.000,A,3853.3266,N,07701.6994,W,0.12,30.64,270915,,,A*4D
$GPGGA,174245.000,3853.3268,N,07701.6993,W,1,08,0.94,0.3,M,-33.5,M,,*57
$GPRMC,174245.000,A,3853.3268,N,07701.6993,W,0.11,330.94,270915,,,A*7E
$GPGGA,174250.000,3853.3269,N,07701.6994,W,1,08,0.94,0.1,M,-33.5,M,,*57
$GPRMC,174250.000,A,3853.3269,N,07701.6994,W,0.14,9.46,270915,,,A*7F
$GPGGA,174255.000,3853.3271,N,07701.6994,W,1,08,0.95,0.0,M,-33.5,M,,*5B
$GPRMC,174255.000,A,3853.3271,N,07701.6994,W,0.07,338.47,270915,,,A*71
$GPGGA,174300.000,3853.3272,N,07701.6995,W,1,08,0.94,-0.1,M,-33.5,M,,*75
$GPRMC,174300.000,A,3853.3272,N,07701.6995,W,0.20,6.66,270915,,,A*7A
$GPGGA,174305.000,3853.3275,N,07701.6994,W,1,08,0.95,-0.2,M,-33.5,M,,*74
$GPRMC,174305.000,A,3853.3275,N,07701.6994,W,0.21,33.59,270915,,,A*42
$GPGGA,174310.000,3853.3277,N,07701.6992,W,1,08,0.94,-0.5,M,-33.5,M,,*72
$GPRMC,174310.000,A,3853.3277,N,07701.6992,W,0.18,36.69,270915,,,A*4E
$GPGGA,174315.000,3853.3279,N,07701.6990,W,1,08,0.94,-0.7,M,-33.5,M,,*79
$GPRMC,174315.000,A,3853.3279,N,07701.6990,W,0.19,8.66,270915,,,A*74
$GPGGA,174320.000,3853.3282,N,07701.6990,W,1,08,0.95,-0.9,M,-33.5,M,,*74
$GPRMC,174320.000,A,3853.3282,N,07701.6990,W,0.29,348.12,270915,,,A*71
$GPGGA,174325.000,3853.3286,N,07701.6991,W,1,08,0.95,-1.3,M,-33.5,M,,*7F
$GPRMC,174325.000,A,3853.3286,N,07701.6991,W,0.25,10.85,270915,,,A*4D
$GPGGA,174330.000,3853.3289,N,07701.6990,W,1,08,0.95,-1.9,M,-33.5,M,,*7F
$GPRMC,174330.000,A,3853.3289,N,07701.6990,W,0.38,130.89,270915,,,A*74
$GPGGA,174335.000,3853.3285,N,07701.6985,W,1,08,0.94,-2.3,M,-33.5,M,,*7A
$GPRMC,174335.000,A,3853.3285,N,07701.6985,W,0.14,120.52,270915,,,A*70
$GPGGA,174340.000,3853.3284,N,07701.6983,W,1,08,0.94,-2.5,M,-33.5,M,,*79
$GPRMC,174340.000,A,3853.3284,N,07701.6983,W,0.23,107.05,270915,,,A*76
$GPGGA,174345.000,3853.3283,N,07701.6979,W,1,08,0.94,-2.7,M,-33.5,M,,*7C
$GPRMC,174345.000,A,3853.3283,N,07701.6979,W,0.08,4.82,270915,,,A*75
$GPGGA,174350.000,3853.3284,N,07701.6979,W,1,08,0.95,-2.8,M,-33.5,M,,*71
$GPRMC,174350.000,A,3853.3284,N,07701.6979,W,0.07,215.98,270915,,,A*70
$GPGGA,174355.000,3853.3283,N,07701.6980,W,1,08,0.94,-2.8,M,-33.5,M,,*74
$GPRMC,174355.000,A,3853.3283,N,07701.6980,W,0.10,98.17,270915,,,A*42
$GPGGA,174400.000,3853.3283,N,07701.6978,W,1,08,0.94,-2.8,M,-33.5,M,,*74
$GPRMC,174400.000,A,3853.3283,N,07701.6978,W,0.11,156.66,270915,,,A*76
$GPGGA,174405.000,3853.3281,N,07701.6978,W,1,08,0.94,-2.8,M,-33.5,M,,*73
$GPRMC,174405.000,A,3853.3281,N,07701.6978,W,0.11,348.40,270915,,,A*78
$GPGGA,174410.000,3853.3283,N,07701.6978,W,1,08,0.95,-2.9,M,-33.5,M,,*75
$GPRMC,174410.000,A,3853.3283,N,07701.6978,W,0.30,103.42,270915,,,A*72
$GPGGA,174415.000,3853.3282,N,07701.6973,W,1,08,0.94,-3.1,M,-33.5,M,,*72
$GPRMC,174415.000,A,3853.3282,N,07701.6973,W,0.09,24.07,270915,,,A*42
$GPGGA,174420.000,3853.3283,N,07701.6973,W,1,08,0.94,-3.3,M,-33.5,M,,*77
$GPRMC,174420.000,A,3853.3283,N,07701.6973,W,0.09,31.78,270915,,,A*49
$GPGGA,174425.000,3853.3284,N,07701.6972,W,1,08,0.94,-3.6,M,-33.5,M,,*71
$GPRMC,174425.000,A,3853.3284,N,07701.6972,W,0.15,172.51,270915,,,A*7A
$GPGGA,174430.000,3853.3282,N,07701.6972,W,1,08,0.94,-3.8,M,-33.5,M,,*7D
$GPRMC,174430.000,A,3853.3282,N,07701.6972,W,0.22,154.32,270915,,,A*7D
$GPGGA,174435.000,3853.3279,N,07701.6970,W,1,08,0.94,-3.9,M,-33.5,M,,*7F
$GPRMC,174435.000,A,3853.3279,N,07701.6970,W,0.15,22.77,270915,,,A*4B
$GPGGA,174440.000,3853.3281,N,07701.6969,W,1,08,0.94,-4.1,M,-33.5,M,,*7D
$GPRMC,174440.000,A,3853.3281,N,07701.6969,W,0.22,227.55,270915,,,A*75
$GPGGA,174445.000,3853.3279,N,07701.6972,W,1,08,0.94,-4.3,M,-33.5,M,,*77
$GPRMC,174445.000,A,3853.3279,N,07701.6972,W,0.10,185.85,270915,,,A*7A
$GPGGA,174450.000,3853.3278,N,07701.6973,W,1,08,0.94,-4.4,M,-33.5,M,,*74
$GPRMC,174450.000,A,3853.3278,N,07701.6973,W,0.19,40.72,270915,,,A*47
$GPGGA,174455.000,3853.3280,N,07701.6971,W,1,08,0.94,-4.5,M,-33.5,M,,*75
$GPRMC,174455.000,A,3853.3280,N,07701.6971,W,0.26,15.85,270915,,,A*43
$GPGGA,174500.000,3853.3283,N,07701.6969,W,1,08,0.94,-4.7,M,-33.5,M,,*7C
$GPRMC,174500.000,A,3853.3283,N,07701.6969,W,0.09,166.36,270915,,,A*78
$GPGGA,174505.000,3853.3282,N,07701.6969,W,1,08,0.94,-4.9,M,-33.5,M,,*76
$GPRMC,174505.000,A,3853.3282,N,07701.6969,W,0.17,146.06,270915,,,A*72
$GPGGA,174510.000,3853.3279,N,07701.6967,W,1,08,0.94,-5.0,M,-33.5,M,,*70
$GPRMC,174510.000,A,3853.3279,N,07701.6967,W,0.16,199.27,270915,,,A*7C
$GPGGA,174515.000,3853.3277,N,07701.6968,W,1,08,0.94,-5.1,M,-33.5,M,,*75
$GPRMC,174515.000,A,3853.3277,N,07701.6968,W,0.11,108.94,270915,,,A*7F
$GPGGA,174520.000,3853.3277,N,07701.6967,W,1,08,0.94,-5.3,M,-33.5,M,,*7E
$GPRMC,174520.000,A,3853.3277,N,07701.6967,W,0.08,5.82,270915,,,A*75
$GPGGA,174525.000,3853.3278,N,07701.6967,W,1,08,0.96,-5.5,M,-33.5,M,,*70
$GPRMC,174525.000,A,3853.3278,N,07701.6967,W,0.07,332.35,270915,,,A*7B
$GPGGA,174530.000,3853.3278,N,07701.6968,W,1,08,0.94,-5.8,M,-33.5,M,,*74
$GPRMC,174530.000,A,3853.3278,N,07701.6968,W,0.07,293.15,270915,,,A*78
$GPGGA,174535.000,3853.3279,N,07701.6969,W,1,08,0.94,-6.2,M,-33.5,M,,*78
$GPRMC,174535.000,A,3853.3279,N,07701.6969,W,0.04,243.74,270915,,,A*74
$GPGGA,174540.000,3853.3278,N,07701.6970,W,1,08,0.94,-6.4,M,-33.5,M,,*75
$GPRMC,174540.000,A,3853.3278,N,07701.6970,W,0.13,101.70,270915,,,A*78
$GPGGA,174545.000,3853.3278,N,07701.6968,W,1,08,0.94,-6.5,M,-33.5,M,,*78
$GPRMC,174545.000,A,3853.3278,N,07701.6968,W,0.19,70.11,270915,,,A*4E
$GPGGA,174550.000,3853.3279,N,07701.6965,W,1,08,0.94,-6.7,M,-33.5,M,,*72
$GPRMC,174550.000,A,3853.3279,N,07701.6965,W,0.08,36.71,270915,,,A*42
$GPGGA,174555.000,3853.3280,N,07701.6964,W,1,08,0.94,-7.0,M,-33.5,M,,*76
$GPRMC,174555.000,A,3853.3280,N,07701.6964,W,0.20,12.53,270915,,,A*4C
$GPGGA,174600.000,3853.3283,N,07701.6963,W,1,08,0.96,-7.2,M,-33.5,M,,*71
$GPRMC,174600.000,A,3853.3283,N,07701.6963,W,0.11,355.69,270915,,,A*70
$GPGGA,174605.000,3853.3284,N,07701.6963,W,1,08,0.96,-7.7,M,-33.5,M,,*76
$GPRMC,174605.000,A,3853.3284,N,07701.6963,W,0.39,253.23,270915,,,A*71
$GPGGA,174610.000,3853.3283,N,07701.6970,W,1,08,0.94,-8.1,M,-33.5,M,,*7C
$GPRMC,174610.000,A,3853.3283,N,07701.6970,W,0.34,251.13,270915,,,A*7C
$GPGGA,174615.000,3853.3282,N,07701.6976,W,1,08,0.94,-8.6,M,-33.5,M,,*79
$GPRMC,174615.000,A,3853.3282,N,07701.6976,W,0.31,20.60,270915,,,A*4B
$GPGGA,174620.000,3853.3286,N,07701.6974,W,1,08,0.94,-9.1,M,-33.5,M,,*7F
$GPRMC,174620.000,A,3853.3286,N,07701.6974,W,0.20,54.14,270915,,,A*4B
$GPGGA,174625.000,3853.3287,N,07701.6971,W,1,08,0.94,-9.6,M,-33.5,M,,*79
$GPRMC,174625.000,A,3853.3287,N,07701.6971,W,0.11,33.15,270915,,,A*48
$GPGGA,174630.000,3853.3288,N,07701.6970,W,1,08,0.94,-10.0,M,-33.5,M,,*4D
$GPRMC,174630.000,A,3853.3288,N,07701.6970,W,0.34,160.08,270915,,,A*7E
$GPGGA,174635.000,3853.3284,N,07701.6968,W,1,08,0.94,-10.3,M,-33.5,M,,*4E
$GPRMC,174635.000,A,3853.3284,N,07701.6968,W,0.18,98.18,270915,,,A*47
$GPGGA,174640.000,3853.3284,N,07701.6965,W,1,08,0.94,-10.6,M,-33.5,M,,*44
$GPRMC,174640.000,A,3853.3284,N,07701.6965,W,0.41,51.84,270915,,,A*44
$GPGGA,174645.000,3853.3287,N,07701.6959,W,1,08,0.94,-10.9,M,-33.5,M,,*42
$GPRMC,174645.000,A,3853.3287,N,07701.6959,W,0.38,74.40,270915,,,A*4C
$GPGGA,174650.000,3853.3289,N,07701.6952,W,1,08,0.94,-11.3,M,-33.5,M,,*48
$GPRMC,174650.000,A,3853.3289,N,07701.6952,W,0.05,32.07,270915,,,A*42
$GPGGA,174655.000,3853.3289,N,07701.6952,W,1,08,0.94,-11.7,M,-33.5,M,,*49
$GPRMC,174655.000,A,3853.3289,N,07701.6952,W,0.24,348.11,270915,,,A*7D
$GPGGA,174700.000,3853.3293,N,07701.6953,W,1,08,0.96,-12.1,M,-33.5,M,,*45
$GPRMC,174700.000,A,3853.3293,N,07701.6953,W,0.15,42.20,270915,,,A*4F
$GPGGA,174705.000,3853.3294,N,07701.6952,W,1,08,0.94,-12.9,M,-33.5,M,,*4C
$GPRMC,174705.000,A,3853.3294,N,07701.6952,W,0.20,338.52,270915,,,A*71
$GPGGA,174710.000,3853.3297,N,07701.6954,W,1,08,0.95,-13.5,M,-33.5,M,,*41
$GPRMC,174710.000,A,3853.3297,N,07701.6954,W,0.23,325.24,270915,,,A*7E
$GPGGA,174715.000,3853.3300,N,07701.6956,W,1,08,0.95,-14.1,M,-33.5,M,,*4A
$GPRMC,174715.000,A,3853.3300,N,07701.6956,W,0.22,288.85,270915,,,A*7A
$GPGGA,174720.000,3853.3301,N,07701.6961,W,1,08,0.95,-14.5,M,-33.5,M,,*4D
$GPRMC,174720.000,A,3853.3301,N,07701.6961,W,0.33,251.52,270915,,,A*77
$GPGGA,174725.000,3853.3300,N,07701.6966,W,1,08,0.95,-14.8,M,-33.5,M,,*43
$GPRMC,174725.000,A,3853.3300,N,07701.6966,W,0.11,334.10,270915,,,A*70
$GPGGA,174730.000,3853.3301,N,07701.6967,W,1,08,0.95,-15.2,M,-33.5,M,,*4C
$GPRMC,174730.000,A,3853.3301,N,07701.6967,W,0.13,19.21,270915,,,A*48
$GPGGA,174735.000,3853.3303,N,07701.6967,W,1,08,0.95,-15.6,M,-33.5,M,,*4F
$GPRMC,174735.000,A,3853.3303,N,07701.6967,W,0.14,14.41,270915,,,A*43
$GPGGA,174740.000,3853.3305,N,07701.6966,W,1,08,0.96,-15.9,M,-33.5,M,,*46
$GPRMC,174740.000,A,3853.3305,N,07701.6966,W,0.23,44.15,270915,,,A*46
$GPGGA,174745.000,3853.3307,N,07701.6963,W,1,08,0.95,-16.6,M,-33.5,M,,*4B
$GPRMC,174745.000,A,3853.3307,N,07701.6963,W,0.19,47.18,270915,,,A*43
$GPGGA,174750.000,3853.3309,N,07701.6961,W,1,08,0.95,-17.1,M,-33.5,M,,*45
$GPRMC,174750.000,A,3853.3309,N,07701.6961,W,0.20,62.18,270915,,,A*46
$GPGGA,174755.000,3853.3310,N,07701.6957,W,1,08,0.95,-17.6,M,-33.5,M,,*4A
$GPRMC,174755.000,A,3853.3310,N,07701.6957,W,0.15,75.86,270915,,,A*49
$GPGGA,174800.000,3853.3310,N,07701.6955,W,1,08,0.95,-18.0,M,-33.5,M,,*4E
$GPRMC,174800.000,A,3853.3310,N,07701.6955,W,0.17,75.41,270915,,,A*4D
$GPGGA,174805.000,3853.3311,N,07701.6952,W,1,08,0.95,-18.4,M,-33.5,M,,*49
$GPRMC,174805.000,A,3853.3311,N,07701.6952,W,0.24,83.84,270915,,,A*4E
$GPGGA,174810.000,3853.3311,N,07701.6948,W,1,08,0.95,-18.8,M,-33.5,M,,*4A
$GPRMC,174810.000,A,3853.3311,N,07701.6948,W,0.14,68.28,270915,,,A*41
$GPGGA,174815.000,3853.3312,N,07701.6946,W,1,08,0.95,-19.2,M,-33.5,M,,*49
$GPRMC,174815.000,A,3853.3312,N,07701.6946,W,0.08,345.49,270915,,,A*7F
$GPGGA,174820.000,3853.3313,N,07701.6946,W,1,08,0.96,-19.5,M,-33.5,M,,*4A
$GPRMC,174820.000,A,3853.3313,N,07701.6946,W,0.10,346.38,270915,,,A*74
$GPGGA,174825.000,3853.3314,N,07701.6947,W,1,08,0.96,-20.0,M,-33.5,M,,*46
$GPRMC,174825.000,A,3853.3314,N,07701.6947,W,0.11,358.84,270915,,,A*7E
$GPGGA,174830.000,3853.3316,N,07701.6947,W,1,08,0.96,-20.8,M,-33.5,M,,*48
$GPRMC,174830.000,A,3853.3316,N,07701.6947,W,0.10,265.80,270915,,,A*72
$GPGGA,174835.000,3853.3316,N,07701.6948,W,1,08,0.95,-22.0,M,-33.5,M,,*4B
$GPRMC,174835.000,A,3853.3316,N,07701.6948,W,0.20,357.52,270915,,,A*74
$GPGGA,174840.000,3853.3318,N,07701.6949,W,1,08,0.96,-22.9,M,-33.5,M,,*4C
$GPRMC,174840.000,A,3853.3318,N,07701.6949,W,0.03,89.91,270915,,,A*47
$GPGGA,174845.000,3853.3318,N,07701.6948,W,1,08,0.95,-24.3,M,-33.5,M,,*47
$GPRMC,174845.000,A,3853.3318,N,07701.6948,W,0.21,50.35,270915,,,A*49
$GPGGA,174850.000,3853.3320,N,07701.6945,W,1,08,0.95,-25.3,M,-33.5,M,,*44
$GPRMC,174850.000,A,3853.3320,N,07701.6945,W,0.29,13.99,270915,,,A*42
$GPGGA,174855.000,3853.3324,N,07701.6944,W,1,08,1.03,-26.2,M,-33.5,M,,*48
$GPRMC,174855.000,A,3853.3324,N,07701.6944,W,0.08,86.94,270915,,,A*40
$GPGGA,174900.000,3853.3324,N,07701.6943,W,1,08,0.95,-27.3,M,-33.5,M,,*40
$GPRMC,174900.000,A,3853.3324,N,07701.6943,W,0.02,219.76,270915,,,A*74
$GPGGA,174905.000,3853.3325,N,07701.6944,W,1,08,0.95,-28.2,M,-33.5,M,,*4D
$GPRMC,174905.000,A,3853.3325,N,07701.6944,W,0.91,284.00,270915,,,A*78
$GPGGA,174910.000,3853.3331,N,07701.6978,W,1,08,0.95,-27.5,M,-33.5,M,,*4B
$GPRMC,174910.000,A,3853.3331,N,07701.6978,W,0.20,327.71,270915,,,A*72
$GPGGA,174915.000,3853.3335,N,07701.6988,W,1,08,0.95,-27.0,M,-33.5,M,,*40
$GPRMC,174915.000,A,3853.3335,N,07701.6988,W,0.19,332.67,270915,,,A*75
$GPGGA,174920.000,3853.3340,N,07701.6992,W,1,08,0.95,-27.7,M,-33.5,M,,*48
$GPRMC,174920.000,A,3853.3340,N,07701.6992,W,0.16,345.67,270915,,,A*75
$GPGGA,174925.000,3853.3348,N,07701.6998,W,1,08,0.96,-28.2,M,-33.5,M,,*46
$GPRMC,174925.000,A,3853.3348,N,07701.6998,W,0.32,26.31,270915,,,A*41
$GPGGA,174930.000,3853.3352,N,07701.6996,W,1,08,0.95,-28.6,M,-33.5,M,,*40
$GPRMC,174930.000,A,3853.3352,N,07701.6996,W,0.21,39.13,270915,,,A*4C
$GPGGA,174935.000,3853.3354,N,07701.6994,W,1,07,1.01,-28.9,M,-33.5,M,,*4D
$GPRMC,174935.000,A,3853.3354,N,07701.6994,W,0.22,23.28,270915,,,A*4D
$GPGGA,174940.000,3853.3357,N,07701.6992,W,1,07,1.01,-29.1,M,-33.5,M,,*43
$GPRMC,174940.000,A,3853.3357,N,07701.6992,W,0.14,54.32,270915,,,A*44
$GPGGA,174945.000,3853.3358,N,07701.6990,W,1,08,0.95,-29.3,M,-33.5,M,,*4A
$GPRMC,174945.000,A,3853.3358,N,07701.6990,W,0.21,255.40,270915,,,A*7C
$GPGGA,174950.000,3853.3357,N,07701.6994,W,1,08,0.95,-29.4,M,-33.5,M,,*42
$GPRMC,174950.000,A,3853.3357,N,07701.6994,W,0.33,35.34,270915,,,A*47
$GPGGA,174955.000,3853.3361,N,07701.6991,W,1,08,0.95,-29.6,M,-33.5,M,,*45
$GPRMC,174955.000,A,3853.3361,N,07701.6991,W,0.11,235.23,270915,,,A*76
$GPGGA,175000.000,3853.3360,N,07701.6993,W,1,08,0.95,-29.8,M,-33.5,M,,*40
$GPRMC,175000.000,A,3853.3360,N,07701.6993,W,0.04,296.76,270915,,,A*70
$GPGGA,175005.000,3853.3360,N,07701.6993,W,1,08,0.95,-29.9,M,-33.5,M,,*44
$GPRMC,175005.000,A,3853.3360,N,07701.6993,W,0.15,98.25,270915,,,A*4F
$GPGGA,175010.000,3853.3359,N,07701.6991,W,1,08,0.95,-30.0,M,-33.5,M,,*49
$GPRMC,175010.000,A,3853.3359,N,07701.6991,W,0.12,70.28,270915,,,A*4F
$GPGGA,175015.000,3853.3360,N,07701.6989,W,1,08,0.95,-30.2,M,-33.5,M,,*4D
$GPRMC,175015.000,A,3853.3360,N,07701.6989,W,0.12,343.30,270915,,,A*73
$GPGGA,175020.000,3853.3361,N,07701.6989,W,1,08,0.95,-30.4,M,-33.5,M,,*4C
$GPRMC,175020.000,A,3853.3361,N,07701.6989,W,0.16,54.46,270915,,,A*44
$GPGGA,175025.000,3853.3362,N,07701.6987,W,1,08,0.95,-30.6,M,-33.5,M,,*46
$GPRMC,175025.000,A,3853.3362,N,07701.6987,W,0.19,18.10,270915,,,A*48
$GPGGA,175030.000,3853.3365,N,07701.6986,W,1,08,0.95,-30.8,M,-33.5,M,,*4A
$GPRMC,175030.000,A,3853.3365,N,07701.6986,W,0.10,28.32,270915,,,A*40
$GPGGA,175035.000,3853.3366,N,07701.6985,W,1,08,0.95,-31.0,M,-33.5,M,,*46
$GPRMC,175035.000,A,3853.3366,N,07701.6985,W,0.10,39.85,270915,,,A*49
$GPGGA,175040.000,3853.3366,N,07701.6984,W,1,08,0.95,-31.2,M,-33.5,M,,*47
$GPRMC,175040.000,A,3853.3366,N,07701.6984,W,0.08,339.77,270915,,,A*7D
$GPGGA,175045.000,3853.3367,N,07701.6985,W,1,08,0.95,-31.5,M,-33.5,M,,*45
$GPRMC,175045.000,A,3853.3367,N,07701.6985,W,0.22,2.11,270915,,,A*7B
$GPGGA,175050.000,3853.3370,N,07701.6985,W,1,08,0.97,-31.8,M,-33.5,M,,*48
$GPRMC,175050.000,A,3853.3370,N,07701.6985,W,0.11,321.56,270915,,,A*78
$GPGGA,175055.000,3853.3372,N,07701.6987,W,1,08,0.95,-32.3,M,-33.5,M,,*47
$GPRMC,175055.000,A,3853.3372,N,07701.6987,W,0.13,337.34,270915,,,A*7C
$GPGGA,175100.000,3853.3373,N,07701.6988,W,1,08,0.95,-32.7,M,-33.5,M,,*4C
$GPRMC,175100.000,A,3853.3373,N,07701.6988,W,0.19,348.64,270915,,,A*74
$GPGGA,175105.000,3853.3376,N,07701.6988,W,1,08,0.97,-33.0,M,-33.5,M,,*48
$GPRMC,175105.000,A,3853.3376,N,07701.6988,W,0.17,9.35,270915,,,A*78
$GPGGA,175110.000,3853.3378,N,07701.6988,W,1,08,0.97,-33.6,M,-33.5,M,,*44
$GPRMC,175110.000,A,3853.3378,N,07701.6988,W,0.23,29.06,270915,,,A*47
$GPGGA,175115.000,3853.3380,N,07701.6985,W,1,08,0.95,-34.5,M,-33.5,M,,*4D
$GPRMC,175115.000,A,3853.3380,N,07701.6985,W,0.15,27.75,270915,,,A*47
$GPGGA,175120.000,3853.3382,N,07701.6984,W,1,08,0.95,-35.2,M,-33.5,M,,*4E
$GPRMC,175120.000,A,3853.3382,N,07701.6984,W,0.18,354.41,270915,,,A*7F
$GPGGA,175125.000,3853.3384,N,07701.6985,W,1,08,0.97,-35.7,M,-33.5,M,,*4B
$GPRMC,175125.000,A,3853.3384,N,07701.6985,W,0.09,353.57,270915,,,A*7D
$GPGGA,175130.000,3853.3385,N,07701.6985,W,1,08,0.97,-36.6,M,-33.5,M,,*4C
$GPRMC,175130.000,A,3853.3385,N,07701.6985,W,0.10,333.75,270915,,,A*76
$GPGGA,175135.000,3853.3386,N,07701.6986,W,1,08,0.95,-37.7,M,-33.5,M,,*4B
$GPRMC,175135.000,A,3853.3386,N,07701.6986,W,0.07,211.81,270915,,,A*7F
$GPGGA,175140.000,3853.3385,N,07701.6986,W,1,08,0.95,-38.3,M,-33.5,M,,*41
$GPRMC,175140.000,A,3853.3385,N,07701.6986,W,0.09,63.14,270915,,,A*4B
$GPGGA,175145.000,3853.3385,N,07701.6985,W,1,08,0.95,-38.9,M,-33.5,M,,*4D
$GPRMC,175145.000,A,3853.3385,N,07701.6985,W,0.12,56.16,270915,,,A*43
$GPGGA,175150.000,3853.3386,N,07701.6983,W,1,08,0.95,-39.3,M,-33.5,M,,*47
$GPRMC,175150.000,A,3853.3386,N,07701.6983,W,0.18,44.89,270915,,,A*4D
$GPGGA,175155.000,3853.3388,N,07701.6981,W,1,08,0.95,-39.6,M,-33.5,M,,*4B
$GPRMC,175155.000,A,3853.3388,N,07701.6981,W,0.17,27.28,270915,,,A*45
$GPGGA,175200.000,3853.3390,N,07701.6979,W,1,08,0.95,-40.0,M,-33.5,M,,*4E
$GPRMC,175200.000,A,3853.3390,N,07701.6979,W,0.12,9.83,270915,,,A*70
$GPGGA,175205.000,3853.3391,N,07701.6979,W,1,08,0.97,-40.3,M,-33.5,M,,*4B
$GPRMC,175205.000,A,3853.3391,N,07701.6979,W,0.07,334.40,270915,,,A*72
$GPGGA,175210.000,3853.3392,N,07701.6980,W,1,08,0.95,-40.8,M,-33.5,M,,*43
$GPRMC,175210.000,A,3853.3392,N,07701.6980,W,0.12,301.41,270915,,,A*70
$GPGGA,175215.000,3853.3393,N,07701.6981,W,1,08,0.95,-41.2,M,-33.5,M,,*4D
$GPRMC,175215.000,A,3853.3393,N,07701.6981,W,0.15,15.68,270915,,,A*4F
$GPGGA,175220.000,3853.3395,N,07701.6981,W,1,08,0.95,-41.5,M,-33.5,M,,*4A
$GPRMC,175220.000,A,3853.3395,N,07701.6981,W,0.14,20.36,270915,,,A*43
$GPGGA,175225.000,3853.3397,N,07701.6980,W,1,08,0.95,-41.9,M,-33.5,M,,*40
$GPRMC,175225.000,A,3853.3397,N,07701.6980,W,0.09,33.55,270915,,,A*4E
$GPGGA,175230.000,3853.3397,N,07701.6979,W,1,08,0.95,-42.4,M,-33.5,M,,*4C
$GPRMC,175230.000,A,3853.3397,N,07701.6979,W,0.11,62.71,270915,,,A*47
$GPGGA,175235.000,3853.3398,N,07701.6978,W,1,08,0.95,-42.8,M,-33.5,M,,*4B
$GPRMC,175235.000,A,3853.3398,N,07701.6978,W,0.19,50.48,270915,,,A*4F
$GPGGA,175240.000,3853.3399,N,07701.6975,W,1,08,0.95,-43.2,M,-33.5,M,,*4E
$GPRMC,175240.000,A,3853.3399,N,07701.6975,W,0.10,61.01,270915,,,A*47
$GPGGA,175245.000,3853.3400,N,07701.6973,W,1,08,0.95,-43.6,M,-33.5,M,,*4E
$GPRMC,175245.000,A,3853.3400,N,07701.6973,W,0.18,29.85,270915,,,A*4B
$GPGGA,175250.000,3853.3402,N,07701.6972,W,1,08,0.95,-44.0,M,-33.5,M,,*48
$GPRMC,175250.000,A,3853.3402,N,07701.6972,W,0.14,350.84,270915,,,A*7C
$GPGGA,175255.000,3853.3404,N,07701.6973,W,1,08,0.97,-44.2,M,-33.5,M,,*4A
$GPRMC,175255.000,A,3853.3404,N,07701.6973,W,0.10,295.30,270915,,,A*7D
$GPGGA,175300.000,3853.3405,N,07701.6974,W,1,08,0.95,-44.6,M,-33.5,M,,*4B
$GPRMC,175300.000,A,3853.3405,N,07701.6974,W,0.05,256.38,270915,,,A*79
$GPGGA,175305.000,3853.3404,N,07701.6975,W,1,08,0.95,-44.8,M,-33.5,M,,*40
$GPRMC,175305.000,A,3853.3404,N,07701.6975,W,0.13,61.10,270915,,,A*47
$GPGGA,175310.000,3853.3405,N,07701.6973,W,1,08,0.95,-45.1,M,-33.5,M,,*4B
$GPRMC,175310.000,A,3853.3405,N,07701.6973,W,0.11,59.10,270915,,,A*4D
$GPGGA,175315.000,3853.3406,N,07701.6971,W,1,08,0.95,-45.5,M,-33.5,M,,*4B
$GPRMC,175315.000,A,3853.3406,N,07701.6971,W,0.16,21.73,270915,,,A*44
$GPGGA,175320.000,3853.3408,N,07701.6971,W,1,08,0.95,-45.9,M,-33.5,M,,*4F
$GPRMC,175320.000,A,3853.3408,N,07701.6971,W,0.08,13.72,270915,,,A*43
$GPGGA,175325.000,3853.3408,N,07701.6970,W,1,08,0.97,-46.3,M,-33.5,M,,*40
$GPRMC,175325.000,A,3853.3408,N,07701.6970,W,0.06,3.57,270915,,,A*7F
$GPGGA,175330.000,3853.3409,N,07701.6970,W,1,08,0.97,-46.9,M,-33.5,M,,*4F
$GPRMC,175330.000,A,3853.3409,N,07701.6970,W,0.09,335.65,270915,,,A*72
$GPGGA,175335.000,3853.3410,N,07701.6971,W,1,08,0.95,-47.9,M,-33.5,M,,*40
$GPRMC,175335.000,A,3853.3410,N,07701.6971,W,0.05,333.89,270915,,,A*76
$GPGGA,175340.000,3853.3410,N,07701.6972,W,1,08,0.95,-48.7,M,-33.5,M,,*40
$GPRMC,175340.000,A,3853.3410,N,07701.6972,W,0.02,326.79,270915,,,A*7B
$GPGGA,175345.000,3853.3411,N,07701.6972,W,1,08,0.95,-49.3,M,-33.5,M,,*41
$GPRMC,175345.000,A,3853.3411,N,07701.6972,W,0.10,53.23,270915,,,A*42
$GPGGA,175350.000,3853.3411,N,07701.6970,W,1,08,0.95,-49.8,M,-33.5,M,,*4C
$GPRMC,175350.000,A,3853.3411,N,07701.6970,W,0.13,38.58,270915,,,A*46
$GPGGA,175355.000,3853.3413,N,07701.6969,W,1,08,0.95,-50.3,M,-33.5,M,,*40
$GPRMC,175355.000,A,3853.3413,N,07701.6969,W,0.09,351.70,270915,,,A*74
$GPGGA,175400.000,3853.3414,N,07701.6970,W,1,08,0.97,-50.7,M,-33.5,M,,*4E
$GPRMC,175400.000,A,3853.3414,N,07701.6970,W,0.09,20.44,270915,,,A*4E
$GPGGA,175405.000,3853.3415,N,07701.6969,W,1,08,0.95,-51.3,M,-33.5,M,,*45
$GPRMC,175405.000,A,3853.3415,N,07701.6969,W,0.21,53.19,270915,,,A*44
$GPGGA,175410.000,3853.3416,N,07701.6966,W,1,08,0.95,-51.8,M,-33.5,M,,*46
$GPRMC,175410.000,A,3853.3416,N,07701.6966,W,1.07,89.89,270915,,,A*47
$GPGGA,175415.000,3853.3389,N,07701.6896,W,1,08,0.95,-42.7,M,-33.5,M,,*41
$GPRMC,175415.000,A,3853.3389,N,07701.6896,W,5.45,87.35,270915,,,A*46
$GPGGA,175420.000,3853.3378,N,07701.6771,W,1,08,0.95,-40.0,M,-33.5,M,,*4A
$GPRMC,175420.000,A,3853.3378,N,07701.6771,W,6.85,86.32,270915,,,A*41
$GPGGA,175425.000,3853.3381,N,07701.6648,W,1,08,0.95,-40.1,M,-33.5,M,,*43
$GPRMC,175425.000,A,3853.3381,N,07701.6648,W,6.13,87.38,270915,,,A*4D
$GPGGA,175430.000,3853.3389,N,07701.6543,W,1,08,0.95,-39.1,M,-33.5,M,,*49
$GPRMC,175430.000,A,3853.3389,N,07701.6543,W,5.48,80.26,270915,,,A*4C
$GPGGA,175435.000,3853.3405,N,07701.6445,W,1,07,1.01,-34.0,M,-33.5,M,,*47
$GPRMC,175435.000,A,3853.3405,N,07701.6445,W,5.86,63.83,270915,,,A*4D
$GPGGA,175440.000,3853.3444,N,07701.6357,W,1,08,0.95,-31.4,M,-33.5,M,,*46
$GPRMC,175440.000,A,3853.3444,N,07701.6357,W,5.72,54.44,270915,,,A*4A
$GPGGA,175445.000,3853.3454,N,07701.6262,W,1,08,0.95,-27.5,M,-33.5,M,,*43
$GPRMC,175445.000,A,3853.3454,N,07701.6262,W,5.08,94.26,270915,,,A*4C
$GPGGA,175450.000,3853.3465,N,07701.6168,W,1,08,0.95,-24.0,M,-33.5,M,,*4A
$GPRMC,175450.000,A,3853.3465,N,07701.6168,W,4.70,63.88,270915,,,A*41
$GPGGA,175455.000,3853.3481,N,07701.6069,W,1,08,0.95,-20.2,M,-33.5,M,,*43
$GPRMC,175455.000,A,3853.3481,N,07701.6069,W,4.42,71.98,270915,,,A*4D
$GPGGA,175500.000,3853.3466,N,07701.5978,W,1,08,0.95,-3.8,M,-33.5,M,,*7A
$GPRMC,175500.000,A,3853.3466,N,07701.5978,W,4.54,70.89,270915,,,A*49
$GPGGA,175505.000,3853.3467,N,07701.5873,W,1,08,0.95,4.9,M,-33.5,M,,*5F
$GPRMC,175505.000,A,3853.3467,N,07701.5873,W,5.09,75.15,270915,,,A*4E
$GPGGA,175510.000,3853.3471,N,07701.5752,W,1,08,0.95,8.2,M,-33.5,M,,*57
$GPRMC,175510.000,A,3853.3471,N,07701.5752,W,6.19,88.06,270915,,,A*43
$GPGGA,175515.000,3853.3469,N,07701.5629,W,1,08,0.95,10.9,M,-33.5,M,,*64
$GPRMC,175515.000,A,3853.3469,N,07701.5629,W,6.06,83.08,270915,,,A*49
$GPGGA,175520.000,3853.3467,N,07701.5513,W,1,08,0.95,12.6,M,-33.5,M,,*6B
$GPRMC,175520.000,A,3853.3467,N,07701.5513,W,5.70,90.79,270915,,,A*4D
$GPGGA,175525.000,3853.3454,N,07701.5411,W,1,08,0.95,13.5,M,-33.5,M,,*6F
$GPRMC,175525.000,A,3853.3454,N,07701.5411,W,5.16,101.86,270915,,,A*72
$GPGGA,175530.000,3853.3441,N,07701.5317,W,1,08,0.95,14.7,M,-33.5,M,,*6B
$GPRMC,175530.000,A,3853.3441,N,07701.5317,W,4.72,97.63,270915,,,A*45
$GPGGA,175535.000,3853.3432,N,07701.5257,W,1,08,0.95,15.2,M,-33.5,M,,*6B
$GPRMC,175535.000,A,3853.3432,N,07701.5257,W,1.75,104.83,270915,,,A*76
$GPGGA,175540.000,3853.3431,N,07701.5218,W,1,08,0.95,14.8,M,-33.5,M,,*6A
$GPRMC,175540.000,A,3853.3431,N,07701.5218,W,2.34,95.04,270915,,,A*4C
$GPGGA,175545.000,3853.3401,N,07701.5133,W,1,08,0.95,15.2,M,-33.5,M,,*6D
$GPRMC,175545.000,A,3853.3401,N,07701.5133,W,6.17,116.11,270915,,,A*7B
$GPGGA,175550.000,3853.3362,N,07701.5012,W,1,08,0.95,14.3,M,-33.5,M,,*69
$GPRMC,175550.000,A,3853.3362,N,07701.5012,W,6.20,107.17,270915,,,A*7D
$GPGGA,175555.000,3853.3349,N,07701.4902,W,1,08,0.96,14.6,M,-33.5,M,,*6A
$GPRMC,175555.000,A,3853.3349,N,07701.4902,W,6.02,95.63,270915,,,A*41
$GPGGA,175600.000,3853.3331,N,07701.4791,W,1,08,0.96,14.9,M,-33.5,M,,*6D
$GPRMC,175600.000,A,3853.3331,N,07701.4791,W,5.66,104.63,270915,,,A*71
$GPGGA,175605.000,3853.3310,N,07701.4682,W,1,08,0.96,15.3,M,-33.5,M,,*63
$GPRMC,175605.000,A,3853.3310,N,07701.4682,W,5.91,101.16,270915,,,A*7B
$GPGGA,175610.000,3853.3298,N,07701.4572,W,1,08,0.96,15.5,M,-33.5,M,,*6C
$GPRMC,175610.000,A,3853.3298,N,07701.4572,W,5.89,96.22,270915,,,A*43
$GPGGA,175615.000,3853.3287,N,07701.4464,W,1,08,0.96,16.3,M,-33.5,M,,*64
$GPRMC,175615.000,A,3853.3287,N,07701.4464,W,5.13,101.33,270915,,,A*72
$GPGGA,175620.000,3853.3270,N,07701.4356,W,1,08,0.96,17.4,M,-33.5,M,,*6A
$GPRMC,175620.000,A,3853.3270,N,07701.4356,W,5.82,100.43,270915,,,A*74
$GPGGA,175625.000,3853.3259,N,07701.4242,W,1,08,0.96,17.5,M,-33.5,M,,*61
$GPRMC,175625.000,A,3853.3259,N,07701.4242,W,5.71,95.18,270915,,,A*41
$GPGGA,175630.000,3853.3256,N,07701.4137,W,1,08,0.96,17.9,M,-33.5,M,,*67
$GPRMC,175630.000,A,3853.3256,N,07701.4137,W,5.35,89.08,270915,,,A*47
$GPGGA,175635.000,3853.3254,N,07701.4036,W,1,08,0.96,17.3,M,-33.5,M,,*6A
$GPRMC,175635.000,A,3853.3254,N,07701.4036,W,5.37,92.09,270915,,,A*49
$GPGGA,175640.000,3853.3251,N,07701.3937,W,1,08,0.96,16.5,M,-33.5,M,,*65
$GPRMC,175640.000,A,3853.3251,N,07701.3937,W,5.31,92.01,270915,,,A*4F
$GPGGA,175645.000,3853.3251,N,07701.3839,W,1,08,0.96,15.4,M,-33.5,M,,*6D
$GPRMC,175645.000,A,3853.3251,N,07701.3839,W,4.99,89.34,270915,,,A*4A
$GPGGA,175650.000,3853.3253,N,07701.3730,W,1,08,0.96,14.4,M,-33.5,M,,*6C
$GPRMC,175650.000,A,3853.3253,N,07701.3730,W,6.31,84.01,270915,,,A*41
$GPGGA,175655.000,3853.3257,N,07701.3615,W,1,08,0.96,13.9,M,-33.5,M,,*61
$GPRMC,175655.000,A,3853.3257,N,07701.3615,W,6.02,88.16,270915,,,A*4C
$GPGGA,175700.000,3853.3264,N,07701.3502,W,1,08,0.96,14.2,M,-33.5,M,,*69
$GPRMC,175700.000,A,3853.3264,N,07701.3502,W,5.62,92.70,270915,,,A*46
$GPGGA,175705.000,3853.3264,N,07701.3399,W,1,08,0.96,15.4,M,-33.5,M,,*6F
$GPRMC,175705.000,A,3853.3264,N,07701.3399,W,5.13,91.47,270915,,,A*46
$GPGGA,175710.000,3853.3265,N,07701.3290,W,1,08,0.96,16.1,M,-33.5,M,,*64
$GPRMC,175710.000,A,3853.3265,N,07701.3290,W,6.01,87.98,270915,,,A*4E
$GPGGA,175715.000,3853.3271,N,07701.3174,W,1,08,0.98,17.0,M,-33.5,M,,*63
$GPRMC,175715.000,A,3853.3271,N,07701.3174,W,6.04,86.09,270915,,,A*4B
$GPGGA,175720.000,3853.3291,N,07701.3065,W,1,08,0.96,17.3,M,-33.5,M,,*67
$GPRMC,175720.000,A,3853.3291,N,07701.3065,W,5.80,70.30,270915,,,A*4E
$GPGGA,175725.000,3853.3313,N,07701.2955,W,1,08,0.96,16.4,M,-33.5,M,,*64
$GPRMC,175725.000,A,3853.3313,N,07701.2955,W,6.03,79.45,270915,,,A*48
$GPGGA,175730.000,3853.3325,N,07701.2839,W,1,08,0.96,15.3,M,-33.5,M,,*6A
$GPRMC,175730.000,A,3853.3325,N,07701.2839,W,6.29,85.13,270915,,,A*4A
$GPGGA,175735.000,3853.3329,N,07701.2719,W,1,08,0.96,14.8,M,-33.5,M,,*64
$GPRMC,175735.000,A,3853.3329,N,07701.2719,W,6.32,89.25,270915,,,A*4D
$GPGGA,175740.000,3853.3322,N,07701.2601,W,1,08,0.96,14.0,M,-33.5,M,,*6D
$GPRMC,175740.000,A,3853.3322,N,07701.2601,W,6.17,97.83,270915,,,A*48
$GPGGA,175745.000,3853.3319,N,07701.2494,W,1,08,0.96,13.2,M,-33.5,M,,*6B
$GPRMC,175745.000,A,3853.3319,N,07701.2494,W,5.49,86.80,270915,,,A*40
$GPGGA,175750.000,3853.3315,N,07701.2387,W,1,08,0.96,11.8,M,-33.5,M,,*6E
$GPRMC,175750.000,A,3853.3315,N,07701.2387,W,5.45,88.21,270915,,,A*44
$GPGGA,175755.000,3853.3319,N,07701.2280,W,1,08,0.98,11.2,M,-33.5,M,,*65
$GPRMC,175755.000,A,3853.3319,N,07701.2280,W,5.54,90.10,270915,,,A*40
$GPGGA,175800.000,3853.3318,N,07701.2173,W,1,08,0.96,11.7,M,-33.5,M,,*6F
$GPRMC,175800.000,A,3853.3318,N,07701.2173,W,5.70,88.69,270915,,,A*40
$GPGGA,175805.000,3853.3327,N,07701.2067,W,1,08,0.96,13.1,M,-33.5,M,,*66
$GPRMC,175805.000,A,3853.3327,N,07701.2067,W,5.35,84.71,270915,,,A*49
$GPGGA,175810.000,3853.3359,N,07701.1991,W,1,08,0.96,16.9,M,-33.5,M,,*65
$GPRMC,175810.000,A,3853.3359,N,07701.1991,W,4.92,38.90,270915,,,A*43
$GPGGA,175815.000,3853.3434,N,07701.1946,W,1,08,0.96,17.9,M,-33.5,M,,*67
$GPRMC,175815.000,A,3853.3434,N,07701.1946,W,5.95,16.19,270915,,,A*4B
$GPGGA,175820.000,3853.3521,N,07701.1934,W,1,08,0.96,19.4,M,-33.5,M,,*62
$GPRMC,175820.000,A,3853.3521,N,07701.1934,W,6.15,358.60,270915,,,A*71
$GPGGA,175825.000,3853.3618,N,07701.1940,W,1,08,0.98,17.0,M,-33.5,M,,*69
$GPRMC,175825.000,A,3853.3618,N,07701.1940,W,6.22,353.04,270915,,,A*73
$GPGGA,175830.000,3853.3709,N,07701.1947,W,1,08,0.98,14.8,M,-33.5,M,,*60
$GPRMC,175830.000,A,3853.3709,N,07701.1947,W,5.93,354.95,270915,,,A*77
$GPGGA,175835.000,3853.3793,N,07701.1961,W,1,08,0.98,12.0,M,-33.5,M,,*6C
$GPRMC,175835.000,A,3853.3793,N,07701.1961,W,5.92,349.69,270915,,,A*7B
$GPGGA,175840.000,3853.3879,N,07701.1964,W,1,07,1.08,9.0,M,-33.5,M,,*5D
$GPRMC,175840.000,A,3853.3879,N,07701.1964,W,6.04,3.99,270915,,,A*79
$GPGGA,175845.000,3853.3948,N,07701.1999,W,1,08,0.98,7.0,M,-33.5,M,,*50
$GPRMC,175845.000,A,3853.3948,N,07701.1999,W,5.56,321.94,270915,,,A*77
$GPGGA,175850.000,3853.3974,N,07701.2093,W,1,08,0.96,5.3,M,-33.5,M,,*54
$GPRMC,175850.000,A,3853.3974,N,07701.2093,W,6.03,273.09,270915,,,A*7D
$GPGGA,175855.000,3853.3973,N,07701.2206,W,1,08,0.96,3.7,M,-33.5,M,,*5A
$GPRMC,175855.000,A,3853.3973,N,07701.2206,W,6.09,269.77,270915,,,A*79
$GPGGA,175900.000,3853.3973,N,07701.2319,W,1,08,0.96,2.2,M,-33.5,M,,*50
$GPRMC,175900.000,A,3853.3973,N,07701.2319,W,6.20,272.35,270915,,,A*70
$GPGGA,175905.000,3853.3979,N,07701.2434,W,1,07,1.11,0.2,M,-33.5,M,,*54
$GPRMC,175905.000,A,3853.3979,N,07701.2434,W,6.27,274.12,270915,,,A*73
$GPGGA,175910.000,3853.3979,N,07701.2546,W,1,08,0.96,-0.3,M,-33.5,M,,*79
$GPRMC,175910.000,A,3853.3979,N,07701.2546,W,6.18,268.21,270915,,,A*72
$GPGGA,175915.000,3853.3980,N,07701.2657,W,1,08,0.96,-1.5,M,-33.5,M,,*7E
$GPRMC,175915.000,A,3853.3980,N,07701.2657,W,6.00,270.66,270915,,,A*71
$GPGGA,175920.000,3853.3980,N,07701.2762,W,1,08,0.96,-1.1,M,-33.5,M,,*7B
$GPRMC,175920.000,A,3853.3980,N,07701.2762,W,5.91,270.06,270915,,,A*7D
$GPGGA,175925.000,3853.3983,N,07701.2867,W,1,08,0.96,-2.9,M,-33.5,M,,*7C
$GPRMC,175925.000,A,3853.3983,N,07701.2867,W,6.02,270.55,270915,,,A*7E
$GPGGA,175930.000,3853.3983,N,07701.2973,W,1,08,0.99,-2.9,M,-33.5,M,,*73
$GPRMC,175930.000,A,3853.3983,N,07701.2973,W,5.72,269.97,270915,,,A*7C
$GPGGA,175935.000,3853.4009,N,07701.3041,W,1,07,1.08,0.5,M,-33.5,M,,*56
$GPRMC,175935.000,A,3853.4009,N,07701.3041,W,4.56,317.54,270915,,,A*7C
$GPGGA,175940.000,3853.4090,N,07701.3060,W,1,08,0.96,4.0,M,-33.5,M,,*5F
$GPRMC,175940.000,A,3853.4090,N,07701.3060,W,5.69,356.56,270915,,,A*77
$GPGGA,175945.000,3853.4176,N,07701.3063,W,1,07,1.08,5.4,M,-33.5,M,,*5C
$GPRMC,175945.000,A,3853.4176,N,07701.3063,W,5.79,353.70,270915,,,A*78
$GPGGA,175950.000,3853.4241,N,07701.3078,W,1,08,0.99,7.0,M,-33.5,M,,*55
$GPRMC,175950.000,A,3853.4241,N,07701.3078,W,4.06,338.81,270915,,,A*7B
$GPGGA,175955.000,3853.4259,N,07701.3095,W,1,08,0.96,8.1,M,-33.5,M,,*5B
$GPRMC,175955.000,A,3853.4259,N,07701.3095,W,1.04,280.18,270915,,,A*71
$GPGGA,180000.000,3853.4258,N,07701.3107,W,1,08,0.96,7.5,M,-33.5,M,,*58
$GPRMC,180000.000,A,3853.4258,N,07701.3107,W,0.78,222.39,270915,,,A*78
$GPGGA,180005.000,3853.4248,N,07701.3108,W,1,08,0.96,6.4,M,-33.5,M,,*53
$GPRMC,180005.000,A,3853.4248,N,07701.3108,W,0.24,174.89,270915,,,A*71
$GPGGA,180010.000,3853.4243,N,07701.3101,W,1,08,0.96,6.1,M,-33.5,M,,*50
$GPRMC,180010.000,A,3853.4243,N,07701.3101,W,0.05,129.10,270915,,,A*7C
$GPGGA,180015.000,3853.4243,N,07701.3100,W,1,08,0.96,5.9,M,-33.5,M,,*5F
$GPRMC,180015.000,A,3853.4243,N,07701.3100,W,0.10,23.06,270915,,,A*40
$GPGGA,180020.000,3853.4244,N,07701.3100,W,1,08,0.96,5.7,M,-33.5,M,,*50
$GPRMC,180020.000,A,3853.4244,N,07701.3100,W,2.17,266.81,270915,,,A*78
$GPGGA,180025.000,3853.4251,N,07701.3197,W,1,08,0.96,4.0,M,-33.5,M,,*59
$GPRMC,180025.000,A,3853.4251,N,07701.3197,W,6.92,273.00,270915,,,A*73
$GPGGA,180030.000,3853.4269,N,07701.3338,W,1,07,1.11,0.2,M,-33.5,M,,*56
$GPRMC,180030.000,A,3853.4269,N,07701.3338,W,7.03,268.80,270915,,,A*70
$GPGGA,180035.000,3853.4265,N,07701.3462,W,1,08,0.96,-0.3,M,-33.5,M,,*7A
$GPRMC,180035.000,A,3853.4265,N,07701.3462,W,6.41,267.97,270915,,,A*7F
$GPGGA,180040.000,3853.4258,N,07701.3588,W,1,08,0.96,-0.1,M,-33.5,M,,*71
$GPRMC,180040.000,A,3853.4258,N,07701.3588,W,6.14,266.40,270915,,,A*7D
$GPGGA,180045.000,3853.4249,N,07701.3708,W,1,08,0.96,0.5,M,-33.5,M,,*57
$GPRMC,180045.000,A,3853.4249,N,07701.3708,W,6.28,268.71,270915,,,A*71
$GPGGA,180050.000,3853.4245,N,07701.3824,W,1,08,0.96,1.7,M,-33.5,M,,*5D
$GPRMC,180050.000,A,3853.4245,N,07701.3824,W,6.17,270.83,270915,,,A*70
$GPGGA,180055.000,3853.4240,N,07701.3936,W,1,08,0.96,3.3,M,-33.5,M,,*59
$GPRMC,180055.000,A,3853.4240,N,07701.3936,W,6.03,267.44,270915,,,A*7A
$GPGGA,180100.000,3853.4240,N,07701.4049,W,1,08,0.96,3.8,M,-33.5,M,,*55
$GPRMC,180100.000,A,3853.4240,N,07701.4049,W,6.31,270.58,270915,,,A*77
$GPGGA,180105.000,3853.4240,N,07701.4164,W,1,08,0.96,4.7,M,-33.5,M,,*56
$GPRMC,180105.000,A,3853.4240,N,07701.4164,W,6.53,270.62,270915,,,A*71
$GPGGA,180110.000,3853.4243,N,07701.4286,W,1,08,0.96,4.7,M,-33.5,M,,*5E
$GPRMC,180110.000,A,3853.4243,N,07701.4286,W,6.64,270.54,270915,,,A*78
$GPGGA,180115.000,3853.4251,N,07701.4409,W,1,07,1.11,1.8,M,-33.5,M,,*52
$GPRMC,180115.000,A,3853.4251,N,07701.4409,W,6.65,273.33,270915,,,A*7C
$GPGGA,180120.000,3853.4266,N,07701.4528,W,1,08,0.96,-1.4,M,-33.5,M,,*72
$GPRMC,180120.000,A,3853.4266,N,07701.4528,W,6.42,272.19,270915,,,A*70
$GPGGA,180125.000,3853.4264,N,07701.4637,W,1,08,0.96,-1.4,M,-33.5,M,,*78
$GPRMC,180125.000,A,3853.4264,N,07701.4637,W,6.02,263.33,270915,,,A*76
$GPGGA,180130.000,3853.4248,N,07701.4749,W,1,08,0.96,-0.8,M,-33.5,M,,*77
$GPRMC,180130.000,A,3853.4248,N,07701.4749,W,6.26,259.68,270915,,,A*75
$GPGGA,180135.000,3853.4233,N,07701.4862,W,1,08,0.96,0.3,M,-33.5,M,,*5E
$GPRMC,180135.000,A,3853.4233,N,07701.4862,W,6.15,266.08,270915,,,A*70
$GPGGA,180140.000,3853.4231,N,07701.4977,W,1,08,0.96,-0.2,M,-33.5,M,,*77
$GPRMC,180140.000,A,3853.4231,N,07701.4977,W,6.33,268.59,270915,,,A*7B
$GPGGA,180145.000,3853.4238,N,07701.5090,W,1,07,1.11,-3.8,M,-33.5,M,,*72
$GPRMC,180145.000,A,3853.4238,N,07701.5090,W,6.11,269.15,270915,,,A*7F
$GPGGA,180150.000,3853.4238,N,07701.5208,W,1,08,0.96,-3.8,M,-33.5,M,,*74
$GPRMC,180150.000,A,3853.4238,N,07701.5208,W,6.48,270.96,270915,,,A*77
$GPGGA,180155.000,3853.4238,N,07701.5326,W,1,07,1.11,-5.5,M,-33.5,M,,*76
$GPRMC,180155.000,A,3853.4238,N,07701.5326,W,6.39,269.52,270915,,,A*79
$GPGGA,180200.000,3853.4237,N,07701.5439,W,1,08,0.96,-6.4,M,-33.5,M,,*70
$GPRMC,180200.000,A,3853.4237,N,07701.5439,W,6.20,270.50,270915,,,A*7E
$GPGGA,180205.000,3853.4241,N,07701.5550,W,1,08,0.96,-6.3,M,-33.5,M,,*7D
$GPRMC,180205.000,A,3853.4241,N,07701.5550,W,6.11,272.27,270915,,,A*74
$GPGGA,180210.000,3853.4232,N,07701.5657,W,1,08,0.96,-4.9,M,-33.5,M,,*71
$GPRMC,180210.000,A,3853.4232,N,07701.5657,W,5.93,265.40,270915,,,A*7E
$GPGGA,180215.000,3853.4223,N,07701.5766,W,1,08,0.96,-2.7,M,-33.5,M,,*7F
$GPRMC,180215.000,A,3853.4223,N,07701.5766,W,6.24,270.58,270915,,,A*7A
$GPGGA,180220.000,3853.4223,N,07701.5878,W,1,08,0.96,-2.0,M,-33.5,M,,*7E
$GPRMC,180220.000,A,3853.4223,N,07701.5878,W,6.45,271.48,270915,,,A*7B
$GPGGA,180225.000,3853.4221,N,07701.5990,W,1,08,0.96,-1.9,M,-33.5,M,,*74
$GPRMC,180225.000,A,3853.4221,N,07701.5990,W,6.13,268.98,270915,,,A*7D
$GPGGA,180230.000,3853.4216,N,07701.6101,W,1,08,0.96,-1.0,M,-33.5,M,,*7E
$GPRMC,180230.000,A,3853.4216,N,07701.6101,W,5.93,268.88,270915,,,A*74
$GPGGA,180235.000,3853.4215,N,07701.6211,W,1,08,0.96,-0.6,M,-33.5,M,,*7D
$GPRMC,180235.000,A,3853.4215,N,07701.6211,W,5.97,271.83,270915,,,A*77
$GPGGA,180240.000,3853.4218,N,07701.6317,W,1,07,1.08,-1.0,M,-33.5,M,,*7B
$GPRMC,180240.000,A,3853.4218,N,07701.6317,W,5.74,269.97,270915,,,A*7E
$GPGGA,180245.000,3853.4208,N,07701.6427,W,1,08,0.96,1.0,M,-33.5,M,,*5F
$GPRMC,180245.000,A,3853.4208,N,07701.6427,W,6.13,267.12,270915,,,A*7F
$GPGGA,180250.000,3853.4203,N,07701.6526,W,1,08,0.96,3.3,M,-33.5,M,,*51
$GPRMC,180250.000,A,3853.4203,N,07701.6526,W,5.42,265.56,270915,,,A*75
$GPGGA,180255.000,3853.4195,N,07701.6621,W,1,08,0.96,4.6,M,-33.5,M,,*5E
$GPRMC,180255.000,A,3853.4195,N,07701.6621,W,5.24,263.03,270915,,,A*7E
$GPGGA,180300.000,3853.4189,N,07701.6714,W,1,08,0.96,7.8,M,-33.5,M,,*58
$GPRMC,180300.000,A,3853.4189,N,07701.6714,W,5.19,266.61,270915,,,A*7A
$GPGGA,180305.000,3853.4207,N,07701.6823,W,1,07,1.11,2.0,M,-33.5,M,,*5F
$GPRMC,180305.000,A,3853.4207,N,07701.6823,W,5.71,271.21,270915,,,A*7D
$GPGGA,180310.000,3853.4212,N,07701.6934,W,1,08,0.96,-0.6,M,-33.5,M,,*70
$GPRMC,180310.000,A,3853.4212,N,07701.6934,W,5.77,266.73,270915,,,A*7D
$GPGGA,180315.000,3853.4212,N,07701.7044,W,1,07,1.11,-2.7,M,-33.5,M,,*78
$GPRMC,180315.000,A,3853.4212,N,07701.7044,W,5.91,267.86,270915,,,A*74
$GPGGA,180320.000,3853.4215,N,07701.7151,W,1,08,0.96,-4.2,M,-33.5,M,,*7E
$GPRMC,180320.000,A,3853.4215,N,07701.7151,W,5.85,270.40,270915,,,A*79
$GPGGA,180325.000,3853.4216,N,07701.7256,W,1,08,0.96,-5.1,M,-33.5,M,,*7E
$GPRMC,180325.000,A,3853.4216,N,07701.7256,W,5.60,271.40,270915,,,A*71
$GPGGA,180330.000,3853.4214,N,07701.7354,W,1,08,0.96,-5.2,M,-33.5,M,,*78
$GPRMC,180330.000,A,3853.4214,N,07701.7354,W,5.57,265.69,270915,,,A*7E
$GPGGA,180335.000,3853.4206,N,07701.7451,W,1,08,0.96,-4.0,M,-33.5,M,,*7F
$GPRMC,180335.000,A,3853.4206,N,07701.7451,W,5.45,267.58,270915,,,A*79
$GPGGA,180340.000,3853.4200,N,07701.7552,W,1,08,0.96,-3.8,M,-33.5,M,,*76
$GPRMC,180340.000,A,3853.4200,N,07701.7552,W,5.34,265.24,270915,,,A*70
$GPGGA,180345.000,3853.4198,N,07701.7650,W,1,08,0.96,-3.3,M,-33.5,M,,*7B
$GPRMC,180345.000,A,3853.4198,N,07701.7650,W,5.53,271.93,270915,,,A*7E
$GPGGA,180350.000,3853.4197,N,07701.7752,W,1,08,0.96,-3.5,M,-33.5,M,,*75
$GPRMC,180350.000,A,3853.4197,N,07701.7752,W,5.68,268.52,270915,,,A*7B
$GPGGA,180355.000,3853.4204,N,07701.7862,W,1,08,0.96,-3.9,M,-33.5,M,,*79
$GPRMC,180355.000,A,3853.4204,N,07701.7862,W,5.77,270.09,270915,,,A*72
$GPGGA,180400.000,3853.4200,N,07701.7968,W,1,08,0.96,-5.2,M,-33.5,M,,*7C
$GPRMC,180400.000,A,3853.4200,N,07701.7968,W,5.60,265.49,270915,,,A*7C
$GPGGA,180405.000,3853.4193,N,07701.8071,W,1,08,0.96,-5.7,M,-33.5,M,,*7B
$GPRMC,180405.000,A,3853.4193,N,07701.8071,W,5.69,268.12,270915,,,A*74
$GPGGA,180410.000,3853.4195,N,07701.8175,W,1,08,0.96,-6.6,M,-33.5,M,,*7E
$GPRMC,180410.000,A,3853.4195,N,07701.8175,W,5.76,269.02,270915,,,A*7D
$GPGGA,180415.000,3853.4197,N,07701.8269,W,1,08,0.96,-5.5,M,-33.5,M,,*77
$GPRMC,180415.000,A,3853.4197,N,07701.8269,W,5.65,271.77,270915,,,A*7D
$GPGGA,180420.000,3853.4190,N,07701.8366,W,1,08,0.96,-4.2,M,-33.5,M,,*7E
$GPRMC,180420.000,A,3853.4190,N,07701.8366,W,5.32,264.59,270915,,,A*78
$GPGGA,180425.000,3853.4188,N,07701.8473,W,1,08,0.96,-4.8,M,-33.5,M,,*7B
$GPRMC,180425.000,A,3853.4188,N,07701.8473,W,5.66,267.54,270915,,,A*78
$GPGGA,180430.000,3853.4187,N,07701.8575,W,1,08,0.96,-4.2,M,-33.5,M,,*7D
$GPRMC,180430.000,A,3853.4187,N,07701.8575,W,5.28,268.43,270915,,,A*77
$GPGGA,180435.000,3853.4188,N,07701.8681,W,1,08,0.96,-3.9,M,-33.5,M,,*73
$GPRMC,180435.000,A,3853.4188,N,07701.8681,W,5.87,271.42,270915,,,A*79
$GPGGA,180440.000,3853.4194,N,07701.8790,W,1,08,0.96,-2.9,M,-33.5,M,,*7C
$GPRMC,180440.000,A,3853.4194,N,07701.8790,W,5.93,277.33,270915,,,A*72
$GPGGA,180445.000,3853.4192,N,07701.8894,W,1,08,0.96,-2.6,M,-33.5,M,,*7B
$GPRMC,180445.000,A,3853.4192,N,07701.8894,W,5.55,267.24,270915,,,A*77
$GPGGA,180450.000,3853.4196,N,07701.8973,W,1,08,0.96,-1.9,M,-33.5,M,,*7F
$GPRMC,180450.000,A,3853.4196,N,07701.8973,W,3.92,276.18,270915,,,A*7D
$GPGGA,180455.000,3853.4196,N,07701.9036,W,1,08,0.96,-1.4,M,-33.5,M,,*7E
$GPRMC,180455.000,A,3853.4196,N,07701.9036,W,3.53,271.35,270915,,,A*74
$GPGGA,180500.000,3853.4195,N,07701.9074,W,1,08,0.96,-3.3,M,-33.5,M,,*7F
$GPRMC,180500.000,A,3853.4195,N,07701.9074,W,1.23,262.42,270915,,,A*77
$GPGGA,180505.000,3853.4193,N,07701.9094,W,1,08,0.96,-3.3,M,-33.5,M,,*72
$GPRMC,180505.000,A,3853.4193,N,07701.9094,W,1.44,251.97,270915,,,A*73
$GPGGA,180510.000,3853.4188,N,07701.9127,W,1,08,0.96,-2.2,M,-33.5,M,,*75
$GPRMC,180510.000,A,3853.4188,N,07701.9127,W,4.33,275.43,270915,,,A*7E
$GPGGA,180515.000,3853.4177,N,07701.9219,W,1,08,0.96,-2.0,M,-33.5,M,,*7C
$GPRMC,180515.000,A,3853.4177,N,07701.9219,W,5.08,251.07,270915,,,A*7A
$GPGGA,180520.000,3853.4149,N,07701.9329,W,1,08,0.96,-0.9,M,-33.5,M,,*7E
$GPRMC,180520.000,A,3853.4149,N,07701.9329,W,6.81,250.01,270915,,,A*76
$GPGGA,180525.000,3853.4123,N,07701.9437,W,1,08,0.96,-2.2,M,-33.5,M,,*76
$GPRMC,180525.000,A,3853.4123,N,07701.9437,W,5.54,246.26,270915,,,A*7E
$GPGGA,180530.000,3853.4094,N,07701.9538,W,1,08,0.96,-2.3,M,-33.5,M,,*70
$GPRMC,180530.000,A,3853.4094,N,07701.9538,W,5.87,249.29,270915,,,A*77
$GPGGA,180535.000,3853.4069,N,07701.9639,W,1,08,0.96,-3.4,M,-33.5,M,,*73
$GPRMC,180535.000,A,3853.4069,N,07701.9639,W,5.77,249.08,270915,,,A*7E
$GPGGA,180540.000,3853.4046,N,07701.9724,W,1,08,0.96,-4.8,M,-33.5,M,,*7A
$GPRMC,180540.000,A,3853.4046,N,07701.9724,W,4.78,251.99,270915,,,A*73
$GPGGA,180545.000,3853.4030,N,07701.9778,W,1,08,0.96,-6.6,M,-33.5,M,,*7B
$GPRMC,180545.000,A,3853.4030,N,07701.9778,W,1.88,244.60,270915,,,A*76
$GPGGA,180550.000,3853.4014,N,07701.9817,W,1,08,0.96,-7.2,M,-33.5,M,,*7A
$GPRMC,180550.000,A,3853.4014,N,07701.9817,W,4.82,250.16,270915,,,A*79
$GPGGA,180555.000,3853.3990,N,07701.9914,W,1,08,0.96,-8.6,M,-33.5,M,,*74
$GPRMC,180555.000,A,3853.3990,N,07701.9914,W,5.56,252.26,270915,,,A*75
$GPGGA,180600.000,3853.3965,N,07702.0016,W,1,07,1.11,-9.2,M,-33.5,M,,*78
$GPRMC,180600.000,A,3853.3965,N,07702.0016,W,5.61,249.41,270915,,,A*72
$GPGGA,180605.000,3853.3960,N,07702.0117,W,1,08,0.97,-9.1,M,-33.5,M,,*7B
$GPRMC,180605.000,A,3853.3960,N,07702.0117,W,5.61,274.81,270915,,,A*70
$GPGGA,180610.000,3853.3981,N,07702.0213,W,1,08,0.97,-9.3,M,-33.5,M,,*75
$GPRMC,180610.000,A,3853.3981,N,07702.0213,W,5.98,291.18,270915,,,A*71
$GPGGA,180615.000,3853.4017,N,07702.0309,W,1,08,1.00,-6.4,M,-33.5,M,,*7C
$GPRMC,180615.000,A,3853.4017,N,07702.0309,W,5.66,295.71,270915,,,A*75
$GPGGA,180620.000,3853.4055,N,07702.0400,W,1,08,0.97,-1.7,M,-33.5,M,,*79
$GPRMC,180620.000,A,3853.4055,N,07702.0400,W,5.72,297.73,270915,,,A*7E
$GPGGA,180625.000,3853.4080,N,07702.0496,W,1,08,0.97,1.9,M,-33.5,M,,*58
$GPRMC,180625.000,A,3853.4080,N,07702.0496,W,5.42,282.22,270915,,,A*7F
$GPGGA,180630.000,3853.4100,N,07702.0594,W,1,08,0.97,4.2,M,-33.5,M,,*58
$GPRMC,180630.000,A,3853.4100,N,07702.0594,W,5.69,281.69,270915,,,A*74
$GPGGA,180635.000,3853.4111,N,07702.0694,W,1,08,0.97,4.8,M,-33.5,M,,*54
$GPRMC,180635.000,A,3853.4111,N,07702.0694,W,5.76,267.34,270915,,,A*7C
$GPGGA,180640.000,3853.4114,N,07702.0799,W,1,08,0.97,3.0,M,-33.5,M,,*50
$GPRMC,180640.000,A,3853.4114,N,07702.0799,W,5.34,267.33,270915,,,A*76
$GPGGA,180645.000,3853.4105,N,07702.0892,W,1,07,1.38,2.3,M,-33.5,M,,*58
$GPRMC,180645.000,A,3853.4105,N,07702.0892,W,5.09,257.25,270915,,,A*7D
$GPGGA,180650.000,3853.4081,N,07702.0979,W,1,07,1.38,1.8,M,-33.5,M,,*5D
$GPRMC,180650.000,A,3853.4081,N,07702.0979,W,5.28,245.44,270915,,,A*77
$GPGGA,180655.000,3853.4051,N,07702.1070,W,1,08,0.97,1.4,M,-33.5,M,,*53
$GPRMC,180655.000,A,3853.4051,N,07702.1070,W,5.41,248.66,270915,,,A*7C
$GPGGA,180700.000,3853.4022,N,07702.1152,W,1,08,0.97,1.6,M,-33.5,M,,*55
$GPRMC,180700.000,A,3853.4022,N,07702.1152,W,4.46,251.04,270915,,,A*72
$GPGGA,180705.000,3853.4039,N,07702.1232,W,1,08,0.97,2.2,M,-33.5,M,,*58
$GPRMC,180705.000,A,3853.4039,N,07702.1232,W,5.33,302.81,270915,,,A*71
$GPGGA,180710.000,3853.4079,N,07702.1319,W,1,08,0.97,1.6,M,-33.5,M,,*57
$GPRMC,180710.000,A,3853.4079,N,07702.1319,W,5.57,296.04,270915,,,A*7A
$GPGGA,180715.000,3853.4106,N,07702.1424,W,1,08,0.97,-0.2,M,-33.5,M,,*7A
$GPRMC,180715.000,A,3853.4106,N,07702.1424,W,5.91,286.66,270915,,,A*70
$GPGGA,180720.000,3853.4122,N,07702.1530,W,1,08,0.97,-2.7,M,-33.5,M,,*79
$GPRMC,180720.000,A,3853.4122,N,07702.1530,W,5.80,278.33,270915,,,A*75
$GPGGA,180725.000,3853.4121,N,07702.1636,W,1,08,0.97,-4.1,M,-33.5,M,,*7A
$GPRMC,180725.000,A,3853.4121,N,07702.1636,W,6.14,268.11,270915,,,A*79
$GPGGA,180730.000,3853.4107,N,07702.1748,W,1,08,0.97,-5.4,M,-33.5,M,,*76
$GPRMC,180730.000,A,3853.4107,N,07702.1748,W,6.25,259.66,270915,,,A*71
$GPGGA,180735.000,3853.4079,N,07702.1850,W,1,08,0.97,-6.7,M,-33.5,M,,*7D
$GPRMC,180735.000,A,3853.4079,N,07702.1850,W,6.02,249.17,270915,,,A*78
$GPGGA,180740.000,3853.4042,N,07702.1951,W,1,08,1.00,-8.6,M,-33.5,M,,*77
$GPRMC,180740.000,A,3853.4042,N,07702.1951,W,6.23,242.38,270915,,,A*77
$GPGGA,180745.000,3853.4009,N,07702.2047,W,1,08,0.97,-9.7,M,-33.5,M,,*7F
$GPRMC,180745.000,A,3853.4009,N,07702.2047,W,5.80,251.58,270915,,,A*7E
$GPGGA,180750.000,3853.3984,N,07702.2144,W,1,08,0.97,-10.8,M,-33.5,M,,*45
$GPRMC,180750.000,A,3853.3984,N,07702.2144,W,5.66,255.18,270915,,,A*7B
$GPGGA,180755.000,3853.3972,N,07702.2242,W,1,08,0.97,-11.1,M,-33.5,M,,*44
$GPRMC,180755.000,A,3853.3972,N,07702.2242,W,5.52,266.90,270915,,,A*75
$GPGGA,180800.001,3853.3973,N,07702.2346,W,1,08,0.97,-11.5,M,-33.5,M,,*4A
$GPRMC,180800.001,A,3853.3973,N,07702.2346,W,5.91,269.42,270915,,,A*70
$GPGGA,180805.000,3853.3974,N,07702.2455,W,1,08,0.97,-11.8,M,-33.5,M,,*41
$GPRMC,180805.000,A,3853.3974,N,07702.2455,W,6.23,270.03,270915,,,A*71
$GPGGA,180810.000,3853.3971,N,07702.2567,W,1,08,0.97,-12.4,M,-33.5,M,,*4F
$GPRMC,180810.000,A,3853.3971,N,07702.2567,W,6.16,265.97,270915,,,A*7F
$GPGGA,180815.000,3853.3970,N,07702.2679,W,1,08,0.97,-13.0,M,-33.5,M,,*42
$GPRMC,180815.000,A,3853.3970,N,07702.2679,W,6.22,270.28,270915,,,A*70
$GPGGA,180820.000,3853.3973,N,07702.2787,W,1,08,0.97,-12.9,M,-33.5,M,,*4F
$GPRMC,180820.000,A,3853.3973,N,07702.2787,W,6.08,272.78,270915,,,A*7A
$GPGGA,180825.000,3853.3975,N,07702.2895,W,1,08,0.97,-13.6,M,-33.5,M,,*4E
$GPRMC,180825.000,A,3853.3975,N,07702.2895,W,5.95,269.42,270915,,,A*71
$GPGGA,180830.000,3853.3974,N,07702.3001,W,1,08,0.97,-14.0,M,-33.5,M,,*4E
$GPRMC,180830.000,A,3853.3974,N,07702.3001,W,5.96,270.05,270915,,,A*78
$GPGGA,180835.000,3853.3972,N,07702.3105,W,1,08,0.97,-14.1,M,-33.5,M,,*49
$GPRMC,180835.000,A,3853.3972,N,07702.3105,W,5.95,269.90,270915,,,A*79
$GPGGA,180840.000,3853.3969,N,07702.3215,W,1,08,0.97,-14.5,M,-33.5,M,,*47
$GPRMC,180840.000,A,3853.3969,N,07702.3215,W,6.18,269.27,270915,,,A*79
$GPGGA,180845.000,3853.3971,N,07702.3326,W,1,08,0.97,-15.1,M,-33.5,M,,*4F
$GPRMC,180845.000,A,3853.3971,N,07702.3326,W,6.19,270.33,270915,,,A*78
$GPGGA,180850.000,3853.3971,N,07702.3434,W,1,08,0.97,-15.1,M,-33.5,M,,*4F
$GPRMC,180850.000,A,3853.3971,N,07702.3434,W,6.07,269.49,270915,,,A*72
$GPGGA,180855.000,3853.3969,N,07702.3531,W,1,08,0.97,-15.2,M,-33.5,M,,*44
$GPRMC,180855.000,A,3853.3969,N,07702.3531,W,5.10,269.03,270915,,,A*71
$GPGGA,180900.000,3853.3966,N,07702.3609,W,1,08,0.97,-15.7,M,-33.5,M,,*47
$GPRMC,180900.000,A,3853.3966,N,07702.3609,W,4.24,269.21,270915,,,A*71
$GPGGA,180905.000,3853.3966,N,07702.3662,W,1,08,0.97,-15.9,M,-33.5,M,,*41
$GPRMC,180905.000,A,3853.3966,N,07702.3662,W,2.48,275.67,270915,,,A*7A
$GPGGA,180910.000,3853.3964,N,07702.3673,W,1,08,0.97,-14.6,M,-33.5,M,,*49
$GPRMC,180910.000,A,3853.3964,N,07702.3673,W,0.61,295.69,270915,,,A*75
$GPGGA,180915.000,3853.3973,N,07702.3675,W,1,08,0.97,-14.5,M,-33.5,M,,*4F
$GPRMC,180915.000,A,3853.3973,N,07702.3675,W,0.16,13.58,270915,,,A*4E
$GPGGA,180920.000,3853.3976,N,07702.3681,W,1,07,1.22,-14.7,M,-33.5,M,,*45
$GPRMC,180920.000,A,3853.3976,N,07702.3681,W,2.46,283.95,270915,,,A*7B
$GPGGA,180925.000,3853.3972,N,07702.3764,W,1,08,0.97,-16.0,M,-33.5,M,,*4B
$GPRMC,180925.000,A,3853.3972,N,07702.3764,W,6.75,261.21,270915,,,A*77
$GPGGA,180930.000,3853.3968,N,07702.3890,W,1,08,0.97,-18.0,M,-33.5,M,,*4E
$GPRMC,180930.000,A,3853.3968,N,07702.3890,W,6.19,267.75,270915,,,A*71
$GPGGA,180935.000,3853.3974,N,07702.4006,W,1,08,0.97,-19.7,M,-33.5,M,,*40
$GPRMC,180935.000,A,3853.3974,N,07702.4006,W,6.38,271.64,270915,,,A*7D
$GPGGA,180940.000,3853.3994,N,07702.4117,W,1,08,0.97,-18.9,M,-33.5,M,,*42
$GPRMC,180940.000,A,3853.3994,N,07702.4117,W,5.69,293.08,270915,,,A*71
$GPGGA,180945.000,3853.4035,N,07702.4208,W,1,08,0.97,-17.8,M,-33.5,M,,*41
$GPRMC,180945.000,A,3853.4035,N,07702.4208,W,5.70,295.75,270915,,,A*78
$GPGGA,180950.000,3853.4065,N,07702.4306,W,1,08,0.97,-17.7,M,-33.5,M,,*40
$GPRMC,180950.000,A,3853.4065,N,07702.4306,W,6.10,281.85,270915,,,A*79
$GPGGA,180955.000,3853.4070,N,07702.4407,W,1,08,1.01,-18.3,M,-33.5,M,,*42
